{
"type": "FeatureCollection",
"crs": { "type": "name", "properties": { "name": "urn:ogc:def:crs:OGC:1.3:CRS84" } },
"features": [
{ "type": "Feature", "properties": { "Name": "الشركة التعازنية المركزية للبذور COSEM", "description": null, "timestamp": null, "begin": null, "end": null, "altitudeMode": null, "tessellate": -1, "extrude": 0, "visibility": -1, "drawOrder": null, "icon": null }, "geometry": { "type": "Point", "coordinates": [ 10.098018770055001, 36.815544310199243, 0.0 ] } },
{ "type": "Feature", "properties": { "Name": "الشركة التعاونية المركزية للبذور  COSEM", "description": null, "timestamp": null, "begin": null, "end": null, "altitudeMode": null, "tessellate": -1, "extrude": 0, "visibility": -1, "drawOrder": null, "icon": null }, "geometry": { "type": "Point", "coordinates": [ 9.851959704973158, 36.833000877145288, 0.0 ] } },
{ "type": "Feature", "properties": { "Name": "الشركة التعاونية المركزية للزراعات الكبرى CCGC", "description": null, "timestamp": null, "begin": null, "end": null, "altitudeMode": null, "tessellate": -1, "extrude": 0, "visibility": -1, "drawOrder": null, "icon": null }, "geometry": { "type": "Point", "coordinates": [ 9.990808415657975, 36.717332048823131, 0.0 ] } },
{ "type": "Feature", "properties": { "Name": "الشركة التعاونية المركزية للزراعات الكبرى CCGC", "description": null, "timestamp": null, "begin": null, "end": null, "altitudeMode": null, "tessellate": -1, "extrude": 0, "visibility": -1, "drawOrder": null, "icon": null }, "geometry": { "type": "Point", "coordinates": [ 9.844698233758393, 36.828773732190662, 0.0 ] } },
{ "type": "Feature", "properties": { "Name": "الشركة التعاونية المركزية للبذور COSEM", "description": null, "timestamp": null, "begin": null, "end": null, "altitudeMode": null, "tessellate": -1, "extrude": 0, "visibility": -1, "drawOrder": null, "icon": null }, "geometry": { "type": "Point", "coordinates": [ 9.817089911863439, 36.840460768934562, 0.0 ] } },
{ "type": "Feature", "properties": { "Name": "الشركة العاونية المركزية للقمح COCEBLE", "description": null, "timestamp": null, "begin": null, "end": null, "altitudeMode": null, "tessellate": -1, "extrude": 0, "visibility": -1, "drawOrder": null, "icon": null }, "geometry": { "type": "Point", "coordinates": [ 9.831581647454756, 36.840618387441523, 0.0 ] } },
{ "type": "Feature", "properties": { "Name": "مصرف الخدمات الفلاحية المتعددة CMA", "description": null, "timestamp": null, "begin": null, "end": null, "altitudeMode": null, "tessellate": -1, "extrude": 0, "visibility": -1, "drawOrder": null, "icon": null }, "geometry": { "type": "Point", "coordinates": [ 9.796313579894118, 36.879411608067727, 0.0 ] } },
{ "type": "Feature", "properties": { "Name": "مركز تجميع الحبوب cta", "description": null, "timestamp": null, "begin": null, "end": null, "altitudeMode": null, "tessellate": -1, "extrude": 0, "visibility": -1, "drawOrder": null, "icon": null }, "geometry": { "type": "Point", "coordinates": [ 9.886622091083703, 36.718333767025889, 0.0 ] } }
]
}
